[
  { "name": "シンガポール", "gdp_ppp": 156755, "longitude": 103.8198, "latitude": 1.3521 },
  { "name": "ルクセンブルク", "gdp_ppp": 152915, "longitude": 6.1319, "latitude": 49.6116 },
  { "name": "リヒテンシュタイン", "gdp_ppp": -1, "longitude": 9.5209, "latitude": 47.1404 },
  { "name": "マカオ", "gdp_ppp": 134042, "longitude": 113.5439, "latitude": 22.1987 },
  { "name": "アイルランド", "gdp_ppp": 134000, "longitude": -6.2603, "latitude": 53.3498 },
  { "name": "モナコ", "gdp_ppp": -1, "longitude": 7.4246, "latitude": 43.7384 },
  { "name": "カタール", "gdp_ppp": 121605, "longitude": 51.5310, "latitude": 25.2854 },
  { "name": "バミューダ", "gdp_ppp": -1, "longitude": -64.782, "latitude": 32.2948 },
  { "name": "ノルウェー", "gdp_ppp": 107892, "longitude": 10.7522, "latitude": 59.9139 },
  { "name": "スイス", "gdp_ppp": 97581, "longitude": 7.4474, "latitude": 46.9480 }
]
