[
  { "name": "シンガポール", "gdp_ppp": 156755, "longitude": 103.8198, "latitude": 1.3521 },
  { "name": "ルクセンブルク", "gdp_ppp": 152915, "longitude": 6.1319, "latitude": 49.6116 },
  { "name": "リヒテンシュタイン", "gdp_ppp": -1, "longitude": 9.5209, "latitude": 47.1404 },
  { "name": "マカオ", "gdp_ppp": 134042, "longitude": 113.5439, "latitude": 22.1987 },
  { "name": "アイルランド", "gdp_ppp": 134000, "longitude": -6.2603, "latitude": 53.3498 },
  { "name": "モナコ", "gdp_ppp": -1, "longitude": 7.4246, "latitude": 43.7384 },
  { "name": "カタール", "gdp_ppp": 121605, "longitude": 51.5310, "latitude": 25.2854 },
  { "name": "バミューダ", "gdp_ppp": -1, "longitude": -64.782, "latitude": 32.2948 },
  { "name": "ノルウェー", "gdp_ppp": 107892, "longitude": 10.7522, "latitude": 59.9139 },
  { "name": "スイス", "gdp_ppp": 97581, "longitude": 7.4474, "latitude": 46.9480 },
  { "name": "ブルネイ", "gdp_ppp": 95758, "longitude": 114.9481, "latitude": 4.9031 },
  { "name": "ガイアナ", "gdp_ppp": 94258, "longitude": -58.1551, "latitude": 6.8013 },
  { "name": "アメリカ合衆国", "gdp_ppp": 89105, "longitude": -77.0369, "latitude": 38.9072 },
  { "name": "ケイマン諸島", "gdp_ppp": -1, "longitude": -81.3722, "latitude": 19.2866 },
  { "name": "マン島", "gdp_ppp": -1, "longitude": -4.4782, "latitude": 54.1523 },
  { "name": "デンマーク", "gdp_ppp": 88934, "longitude": 12.5683, "latitude": 55.6761 },
  { "name": "オランダ", "gdp_ppp": 84566, "longitude": 4.9041, "latitude": 52.3676 },
  { "name": "台湾", "gdp_ppp": 84082, "longitude": 121.5654, "latitude": 25.0330 },
  { "name": "サンマリノ", "gdp_ppp": 83031, "longitude": 12.4474, "latitude": 43.9356 },
  { "name": "アラブ首長国連邦", "gdp_ppp": 81676, "longitude": 54.3773, "latitude": 24.4539 },
  { "name": "アイスランド", "gdp_ppp": 81215, "longitude": -21.9426, "latitude": 64.1466 },
  { "name": "フェロー諸島", "gdp_ppp": -1, "longitude": -6.7700, "latitude": 62.0100 },
  { "name": "香港", "gdp_ppp": 77942, "longitude": 114.1694, "latitude": 22.3193 },
  { "name": "マルタ", "gdp_ppp": 76705, "longitude": 14.5146, "latitude": 35.8989 },
  { "name": "ベルギー", "gdp_ppp": 75846, "longitude": 4.3517, "latitude": 50.8503 },
  { "name": "スウェーデン", "gdp_ppp": 74902, "longitude": 18.0686, "latitude": 59.3293 },
  { "name": "オーストリア", "gdp_ppp": 74372, "longitude": 16.3738, "latitude": 48.2082 },
  { "name": "ドイツ", "gdp_ppp": 72599, "longitude": 13.4050, "latitude": 52.5200 },
  { "name": "フォークランド諸島", "gdp_ppp": -1, "longitude": -57.8511, "latitude": -51.6977 },
  { "name": "オーストラリア", "gdp_ppp": 72138, "longitude": 149.1300, "latitude": -35.2809 },
  { "name": "アンドラ", "gdp_ppp": 72059, "longitude": 1.5218, "latitude": 42.5063 },
  { "name": "バーレーン", "gdp_ppp": 67795, "longitude": 50.5860, "latitude": 26.2285 },
  { "name": "フィンランド", "gdp_ppp": 66496, "longitude": 24.9384, "latitude": 60.1699 },
  { "name": "カナダ", "gdp_ppp": 65707, "longitude": -75.6972, "latitude": 45.4215 },
  { "name": "フランス", "gdp_ppp": 65626, "longitude": 2.3522, "latitude": 48.8566 },
  { "name": "韓国", "gdp_ppp": 65112, "longitude": 126.9780, "latitude": 37.5665 },
  { "name": "キプロス", "gdp_ppp": 65088, "longitude": 33.3823, "latitude": 35.1856 },
  { "name": "欧州連合", "gdp_ppp": 64545, "longitude": 4.3517, "latitude": 50.8503 },
  { "name": "イギリス", "gdp_ppp": 63661, "longitude": -0.1278, "latitude": 51.5074 },
  { "name": "ジブラルタル", "gdp_ppp": -1, "longitude": -5.3536, "latitude": 36.1408 },
  { "name": "イタリア", "gdp_ppp": 63076, "longitude": 12.4964, "latitude": 41.9028 },
  { "name": "サウジアラビア", "gdp_ppp": 61923, "longitude": 46.6753, "latitude": 24.7136 },
  { "name": "チェコ共和国", "gdp_ppp": 59368, "longitude": 14.4378, "latitude": 50.0755 },
  { "name": "ジャージー", "gdp_ppp": -1, "longitude": -2.1100, "latitude": 49.1812 },
  { "name": "スロベニア", "gdp_ppp": 57985, "longitude": 14.5058, "latitude": 46.0569 },
  { "name": "リトアニア", "gdp_ppp": 57196, "longitude": 25.2797, "latitude": 54.6872 },
  { "name": "スペイン", "gdp_ppp": 56555, "longitude": -3.7038, "latitude": 40.4168 },
  { "name": "イスラエル", "gdp_ppp": 56436, "longitude": 35.2137, "latitude": 31.7683 },
  { "name": "ニュージーランド", "gdp_ppp": 55450, "longitude": 174.7762, "latitude": -41.2865 },
  { "name": "ポーランド", "gdp_ppp": 55186, "longitude": 21.0122, "latitude": 52.2297 },
  { "name": "日本", "gdp_ppp": 54677, "longitude": 139.6917, "latitude": 35.6895 }
]
